[
  {
    "id": 1,
    "name": "Tatiana N.",
    "lat": 47.75494,
    "lng": 27.913,
    "country": "Moldova",
    "city": "Bālti"
  },
  {
    "id": 2,
    "name": "Sonja N.",
    "lat": -25.891968,
    "lng": 32.605135,
    "country": "Mosambique",
    "city": "Maputo"
  },
  {
    "id": 3,
    "name": "Belén A.F.C.",
    "lat": -36.606262,
    "lng": -72.102335,
    "country": "Chile",
    "city": "Chillan"
  },
  {
    "id": 4,
    "name": "Victória C.L.",
    "lat": -19.924502,
    "lng": -43.935238,
    "country": "Brazil",
    "city": "Belo Horizonte"
  },
  {
    "id": 5,
    "name": "Fateme",
    "lat": 34.091221,
    "lng": 49.689861,
    "country": "Iran",
    "city": "Arak"
  },
  {
    "id": 6,
    "name": "Ania S.",
    "lat": 52.229676,
    "lng": 21.012229,
    "country": "Poland",
    "city": "Warszawa"
  },
  {
    "id": 7,
    "name": "Michael M.",
    "lat": 54.38885,
    "lng": -5.550706,
    "country": "Northern Ireland",
    "city": "Portaferry"
  },
  {
    "id": 8,
    "name": "Lara G.",
    "lat": 45.465454,
    "lng": 9.186516,
    "country": "Italy",
    "city": "Milano"
  },
  {
    "id": 9,
    "name": "Nisklas S.P.",
    "lat": 36.595699,
    "lng": -4.63762,
    "country": "Spain",
    "city": "Mijas"
  },
  {
    "id": 10,
    "name": "Daniela P.",
    "lat": 44.437711,
    "lng": 26.097367,
    "country": "Romania",
    "city": "Bucharest"
  },
  {
    "id": 11,
    "name": "Acil Victoria L.",
    "lat": 59.93428,
    "lng": 30.335099,
    "country": "Russia",
    "city": "Skt. Petersburg"
  },
  {
    "id": 12,
    "name": "Rocío L.",
    "lat": -34.608418,
    "lng": -58.373161,
    "country": "Argentina",
    "city": "Buenos Aires"
  },
  {
    "id": 13,
    "name": "KAlina G.",
    "lat": 41.931277,
    "lng": 25.557213,
    "country": "Bulgaria",
    "city": "Haskovo"
  },
  {
    "id": 14,
    "name": "Paola V.C.",
    "lat": 19.432608,
    "lng": -99.133208,
    "country": "Mexico",
    "city": "Mexico City"
  },
  {
    "id": 15,
    "name": "Kim K.",
    "lat": 52.284239,
    "lng": 6.426047,
    "country": "Holland",
    "city": "Holten"
  },
  {
    "id": 16,
    "name": "Federico M.",
    "lat": 48.3953,
    "lng": 12.76179,
    "country": "Germany",
    "city": "Eggenfelden"
  },
  {
    "id": 17,
    "name": "Anna K.C.",
    "lat": 42.874621,
    "lng": 74.569762,
    "country": "Kyrgyzstan",
    "city": "Bishkek"
  },
  {
    "id": 18,
    "name": "Sangheeta T.",
    "lat": 26.879641,
    "lng": 80.56982,
    "country": "India",
    "city": "Uttar Pradesh"
  },
  {
    "id": 19,
    "name": "Rita A.N.",
    "lat": 40.206569,
    "lng": -8.414618,
    "country": "Portugal",
    "city": "Coimbra"
  },
  {
    "id": 20,
    "name": "Kajsa F.",
    "lat": 14.599512,
    "lng": 120.984222,
    "country": "Filippines",
    "city": "Manila"
  },
  {
    "id": 21,
    "name": "Lucero C.",
    "lat": -11.335798,
    "lng": -75.341218,
    "country": "Perú",
    "city": "Junín"
  },
  {
    "id": 22,
    "name": "Linh M.",
    "lat": 21.033333,
    "lng": 105.85,
    "country": "Vietnam/Tjekkiet",
    "city": "Hanoi"
  },
  {
    "id": 23,
    "name": "Mirza G.P.",
    "lat": 44.766667,
    "lng": 17.183333,
    "country": "Bosnia+Herzegovina",
    "city": "Banja Luka"
  },
  {
    "id": 24,
    "name": "Nuunuu P.",
    "lat": 64.18362,
    "lng": -51.721407,
    "country": "Greenland",
    "city": "Nuuk"
  },
  {
    "id": 25,
    "name": "Adas A.",
    "lat": 54.650828,
    "lng": 23.950308,
    "country": "Lithuania",
    "city": "Prienai"
  },
  {
    "id": 26,
    "name": "Kaynat K.",
    "lat": 23.709921,
    "lng": 90.407143,
    "country": "Bangladesh",
    "city": "Dhaka"
  },
  {
    "id": 27,
    "name": "Elena D.",
    "lat": 39.364617,
    "lng": 22.933212,
    "country": "Greece",
    "city": "Volos"
  },
  {
    "id": 28,
    "name": "Maris G.",
    "lat": 57.06689,
    "lng": 25.458464,
    "country": "Latvia",
    "city": "Jelgava"
  },
  {
    "id": 29,
    "name": "Matiyas K.",
    "lat": 9.03314,
    "lng": 38.75008,
    "country": "Ethiopia",
    "city": "Finfinee"
  },
  {
    "id": 30,
    "name": "Nikolaj L.K.",
    "lat": 55.403756,
    "lng": 10.40237,
    "country": "Denmark",
    "city": "Odense"
  },
  {
    "id": 31,
    "name": "Enida A.",
    "lat": 50.111445,
    "lng": 8.680615,
    "country": "Germany/Bosnia",
    "city": "Frankfurt am Main"
  },
  {
    "id": 32,
    "name": "Jakub K.",
    "lat": 53.647156,
    "lng": 22.455217,
    "country": "Poland",
    "city": "Grajewo"
  },
  {
    "id": 33,
    "name": "Guido G.",
    "lat": 46.67721,
    "lng": 13.984811,
    "country": "Austria",
    "city": "Ossiach"
  },
  {
    "id": 34,
    "name": "Ahmed S.",
    "lat": 34.528455,
    "lng": 69.171703,
    "country": "Afghanistan",
    "city": "Kabul"
  },
  {
    "id": 35,
    "name": "Lauren Marie C.",
    "lat": 28.538336,
    "lng": -81.379237,
    "country": "USA",
    "city": "Orlando / Florida"
  },
  {
    "id": 36,
    "name": "Müge L.H.",
    "lat": 38.41885,
    "lng": 27.12872,
    "country": "Turkey",
    "city": "Izmir"
  },
  {
    "id": 37,
    "name": "Martin B.",
    "lat": -32.890183,
    "lng": -68.84405,
    "country": "Argentina",
    "city": "Mendoza"
  },
  {
    "id": 38,
    "name": "Mashkhura S.",
    "lat": 41.299496,
    "lng": 69.240073,
    "country": "Uzbekistan",
    "city": "Tashkent"
  },
  {
    "id": 39,
    "name": "Ikenna N.",
    "lat": 9.081999,
    "lng": 8.675277,
    "country": "Nigeria",
    "city": "Abuja"
  },
  {
    "id": 40,
    "name": "Zinajda S.",
    "lat": 43.8476,
    "lng": 18.3564,
    "country": "Bosnia+Herzegovina",
    "city": "Sarajevo"
  },
  {
    "id": 41,
    "name": "Angelina W.D.",
    "lat": 55.428283,
    "lng": 10.442247,
    "country": "Denmark",
    "city": "Odense"
  },
  {
    "id": 42,
    "name": "John J.",
    "lat": 30.504358,
    "lng": -90.4612,
    "country": "USA",
    "city": "Hammond/ Louisiana"
  },
  {
    "id": 43,
    "name": "Irina R.",
    "lat": 47.156944,
    "lng": 27.590278,
    "country": "Romania",
    "city": "Iași"
  }
]